[
  {
    "name": "도쿄교회",
    "jipa": "맛디아",
    "continent": "아시아",
    "country": "일본",
    "gubun": "교회",
    "lat": 35.6812546,
    "lon": 139.766706
  },
  {
    "name": "텍사스교회",
    "jipa": "맛디아",
    "continent": "북아메리카",
    "country": "미국",
    "gubun": "교회",
    "lat": 31.2638905,
    "lon": -98.5456116
  },
  {
    "name": "튀르키예교회",
    "jipa": "맛디아",
    "continent": "유럽",
    "country": "튀르키예",
    "gubun": "교회",
    "lat": 41.006381,
    "lon": 28.9758715
  },
  {
    "name": "파키스탄교회",
    "jipa": "맛디아",
    "continent": "아시아",
    "country": "파키스탄",
    "gubun": "교회",
    "lat": 31.5656822,
    "lon": 74.3141829
  },
  {
    "name": "인도첸나이교회",
    "jipa": "맛디아",
    "continent": "아시아",
    "country": "인도",
    "gubun": "교회",
    "lat": 13.0836939,
    "lon": 80.270186
  },
  {
    "name": "콩고민주공화국킨샤사교회",
    "jipa": "맛디아",
    "continent": "아프리카",
    "country": "콩고민주공화국",
    "gubun": "교회",
    "lat": -4.32171,
    "lon": 15.3122511
  },
  {
    "name": "대전교회카자흐스탄아스타나지역",
    "jipa": "맛디아",
    "continent": "아시아",
    "country": "카자흐스탄",
    "gubun": "지역",
    "lat": 51.1159933,
    "lon": 71.4677059
  },
  {
    "name": "대전교회포르투갈리스본지역",
    "jipa": "맛디아",
    "continent": "유럽",
    "country": "포르투갈",
    "gubun": "지역",
    "lat": 38.7077507,
    "lon": -9.1365919
  },
  {
    "name": "천안교회멕시코과달라하라지역",
    "jipa": "맛디아",
    "continent": "중앙아메리카",
    "country": "멕시코",
    "gubun": "지역",
    "lat": 20.6720375,
    "lon": -103.338396
  },
  {
    "name": "청주교회브라질리우데자네이루지역",
    "jipa": "맛디아",
    "continent": "남아메리카",
    "country": "브라질",
    "gubun": "지역",
    "lat": -22.9110137,
    "lon": -43.2093727
  },
  {
    "name": "인도첸나이교회인도네시아마카사르지역",
    "jipa": "맛디아",
    "continent": "아시아",
    "country": "인도네시아",
    "gubun": "지역",
    "lat": -5.1342962,
    "lon": 119.4124282
  },
  {
    "name": "대전교회해외개척지역",
    "jipa": "맛디아",
    "continent": "",
    "country": "",
    "gubun": "개척지",
    "lat": null,
    "lon": null
  },
  {
    "name": "청주교회해외개척지역",
    "jipa": "맛디아",
    "continent": "",
    "country": "",
    "gubun": "개척지",
    "lat": null,
    "lon": null
  },
  {
    "name": "텍사스교회해외개척지역",
    "jipa": "맛디아",
    "continent": "",
    "country": "",
    "gubun": "개척지",
    "lat": null,
    "lon": null
  },
  {
    "name": "인도첸나이교회해외개척지역",
    "jipa": "맛디아",
    "continent": "",
    "country": "",
    "gubun": "개척지",
    "lat": null,
    "lon": null
  },
  {
    "name": "인도첸나이인도하이데라바드지역",
    "jipa": "맛디아",
    "continent": "아시아",
    "country": "인도",
    "gubun": "지역",
    "lat": 17.385,
    "lon": 78.4867
  },
  {
    "name": "인도첸나이인도뭄바이지역",
    "jipa": "맛디아",
    "continent": "아시아",
    "country": "인도",
    "gubun": "지역",
    "lat": 19.076,
    "lon": 72.8777
  },
  {
    "name": "인도첸나이인도오디샤지역",
    "jipa": "맛디아",
    "continent": "아시아",
    "country": "인도",
    "gubun": "지역",
    "lat": 20.2961,
    "lon": 85.8245
  },
  {
    "name": "인도첸나이인도카르나타카서부지역",
    "jipa": "맛디아",
    "continent": "아시아",
    "country": "인도",
    "gubun": "지역",
    "lat": 12.9141,
    "lon": 74.856
  },
  {
    "name": "텍사스교회부에아지역",
    "jipa": "맛디아",
    "continent": "아프리카",
    "country": "카메룬",
    "gubun": "지역",
    "lat": 4.1567895,
    "lon": 9.2315915
  },
  {
    "name": "인도첸나이교회인도네시아쿠팡지역",
    "jipa": "맛디아",
    "continent": "아시아",
    "country": "인도네시아",
    "gubun": "지역",
    "lat": -10.1632209,
    "lon": 123.6017755
  }
]