[
  {
    "churchId": 1,
    "name": "도쿄교회",
    "gubun": "교회",
    "jipa": "맛디아",
    "continent": "아시아",
    "country": "일본",
    "leaderName": "도쿄 담임사역자",
    "flightTime": "직항 약 2시간 30분",
    "distanceKm": 1200,
    "timeDiff": "시차 없음 (한국과 동일)",
    "language": "일본어",
    "religion": "신토 · 불교",
    "lat": 35.6812546,
    "lon": 139.766706
  },
  {
    "churchId": 2,
    "name": "텍사스교회",
    "gubun": "교회",
    "jipa": "맛디아",
    "continent": "북아메리카",
    "country": "미국",
    "leaderName": "텍사스 담임사역자",
    "flightTime": "직항 약 14시간",
    "distanceKm": 11200,
    "timeDiff": "한국보다 14시간 느림",
    "language": "영어",
    "religion": "개신교 · 가톨릭",
    "lat": 31.2638905,
    "lon": -98.5456116
  },
  {
    "churchId": 3,
    "name": "튀르키예교회",
    "gubun": "교회",
    "jipa": "맛디아",
    "continent": "유럽",
    "country": "튀르키예",
    "leaderName": "튀르키예 담임사역자",
    "flightTime": "직항 약 11시간",
    "distanceKm": 7900,
    "timeDiff": "한국보다 6시간 느림",
    "language": "튀르키예어",
    "religion": "이슬람교 (99%)",
    "lat": 41.006381,
    "lon": 28.9758715
  },
  {
    "churchId": 4,
    "name": "파키스탄교회",
    "gubun": "교회",
    "jipa": "맛디아",
    "continent": "아시아",
    "country": "파키스탄",
    "leaderName": "파키스탄 담임사역자",
    "flightTime": "직항 약 8시간 30분",
    "distanceKm": 5300,
    "timeDiff": "한국보다 4시간 느림",
    "language": "우르두어 · 영어",
    "religion": "이슬람교 (96%)",
    "lat": 31.5656822,
    "lon": 74.3141829
  },
  {
    "churchId": 5,
    "name": "인도첸나이교회",
    "gubun": "교회",
    "jipa": "맛디아",
    "continent": "아시아",
    "country": "인도",
    "leaderName": "인도첸나이교회 담임사역자",
    "flightTime": "직항 약 8시간 50분",
    "distanceKm": 5600,
    "timeDiff": "한국보다 3시간 30분 느림",
    "language": "힌디어 · 타밀어 · 영어",
    "religion": "힌두교 (79%) · 이슬람교 · 기독교",
    "lat": 13.0836939,
    "lon": 80.270186
  },
  {
    "churchId": 6,
    "name": "콩고민주공화국킨샤사교회",
    "gubun": "교회",
    "jipa": "맛디아",
    "continent": "아프리카",
    "country": "콩고민주공화국",
    "leaderName": "콩고민주공화국킨샤사 담임사역자",
    "flightTime": "경유 약 17시간",
    "distanceKm": 11800,
    "timeDiff": "한국보다 8시간 느림",
    "language": "프랑스어 · 링갈라어",
    "religion": "가톨릭 (50%) · 개신교 (35%)",
    "lat": -4.32171,
    "lon": 15.3122511
  },
  {
    "churchId": 7,
    "name": "대전교회카자흐스탄아스타나지역",
    "gubun": "지역",
    "jipa": "맛디아",
    "continent": "아시아",
    "country": "카자흐스탄",
    "leaderName": "카자흐스탄아스타나 담임사역자",
    "flightTime": "직항 약 6시간 30분",
    "distanceKm": 4760,
    "timeDiff": "한국보다 4시간 느림",
    "language": "카자흐어 · 러시아어",
    "religion": "이슬람교 (70%) · 정교회",
    "lat": 51.1159933,
    "lon": 71.4677059
  },
  {
    "churchId": 8,
    "name": "대전교회포르투갈리스본지역",
    "gubun": "지역",
    "jipa": "맛디아",
    "continent": "유럽",
    "country": "포르투갈",
    "leaderName": "포르투갈리스본 담임사역자",
    "flightTime": "경유 약 14시간 30분",
    "distanceKm": 9600,
    "timeDiff": "한국보다 8시간 느림",
    "language": "포르투갈어",
    "religion": "가톨릭 (81%)",
    "lat": 38.7077507,
    "lon": -9.1365919
  },
  {
    "churchId": 9,
    "name": "천안교회멕시코과달라하라지역",
    "gubun": "지역",
    "jipa": "맛디아",
    "continent": "중앙아메리카",
    "country": "멕시코",
    "leaderName": "멕시코과달라하라 담임사역자",
    "flightTime": "경유 약 16시간",
    "distanceKm": 11800,
    "timeDiff": "한국보다 15시간 느림",
    "language": "스페인어",
    "religion": "가톨릭 (78%)",
    "lat": 20.6720375,
    "lon": -103.338396
  },
  {
    "churchId": 10,
    "name": "청주교회브라질리우데자네이루지역",
    "gubun": "지역",
    "jipa": "맛디아",
    "continent": "남아메리카",
    "country": "브라질",
    "leaderName": "브라질리우데자네이루 담임사역자",
    "flightTime": "경유 약 23시간",
    "distanceKm": 17900,
    "timeDiff": "한국보다 12시간 느림",
    "language": "포르투갈어",
    "religion": "가톨릭 (64%) · 개신교 (22%)",
    "lat": -22.9110137,
    "lon": -43.2093727
  },
  {
    "churchId": 11,
    "name": "인도첸나이교회인도네시아마카사르지역",
    "gubun": "지역",
    "jipa": "맛디아",
    "continent": "아시아",
    "country": "인도네시아",
    "leaderName": "인도네시아마카사르 담임사역자",
    "flightTime": "직항 약 7시간",
    "distanceKm": 5200,
    "timeDiff": "한국보다 2시간 느림",
    "language": "인도네시아어",
    "religion": "이슬람교 (87%) · 개신교 (7%)",
    "lat": -5.1342962,
    "lon": 119.4124282
  },
  {
    "churchId": 12,
    "name": "대전교회해외개척지역",
    "gubun": "개척지",
    "jipa": "맛디아",
    "continent": "",
    "country": "",
    "leaderName": "해외개척 담임사역자",
    "flightTime": "직항 약 8시간",
    "distanceKm": 6500,
    "timeDiff": "한국보다 4시간 느림",
    "language": "현지어 · 영어",
    "religion": "기독교 · 주요종교",
    "lat": null,
    "lon": null
  },
  {
    "churchId": 13,
    "name": "청주교회해외개척지역",
    "gubun": "개척지",
    "jipa": "맛디아",
    "continent": "",
    "country": "",
    "leaderName": "해외개척 담임사역자",
    "flightTime": "직항 약 8시간",
    "distanceKm": 6500,
    "timeDiff": "한국보다 4시간 느림",
    "language": "현지어 · 영어",
    "religion": "기독교 · 주요종교",
    "lat": null,
    "lon": null
  },
  {
    "churchId": 14,
    "name": "텍사스교회해외개척지역",
    "gubun": "개척지",
    "jipa": "맛디아",
    "continent": "",
    "country": "",
    "leaderName": "텍사스해외개척 담임사역자",
    "flightTime": "직항 약 8시간",
    "distanceKm": 6500,
    "timeDiff": "한국보다 4시간 느림",
    "language": "현지어 · 영어",
    "religion": "기독교 · 주요종교",
    "lat": null,
    "lon": null
  },
  {
    "churchId": 15,
    "name": "인도첸나이교회해외개척지역",
    "gubun": "개척지",
    "jipa": "맛디아",
    "continent": "",
    "country": "",
    "leaderName": "해외개척 담임사역자",
    "flightTime": "직항 약 8시간",
    "distanceKm": 6500,
    "timeDiff": "한국보다 4시간 느림",
    "language": "현지어 · 영어",
    "religion": "기독교 · 주요종교",
    "lat": null,
    "lon": null
  },
  {
    "churchId": 16,
    "name": "인도첸나이인도하이데라바드지역",
    "gubun": "지역",
    "jipa": "맛디아",
    "continent": "아시아",
    "country": "인도",
    "leaderName": "인도하이데라바드 담임사역자",
    "flightTime": "직항 약 8시간 50분",
    "distanceKm": 5600,
    "timeDiff": "한국보다 3시간 30분 느림",
    "language": "힌디어 · 타밀어 · 영어",
    "religion": "힌두교 (79%) · 이슬람교 · 기독교",
    "lat": 17.385,
    "lon": 78.4867
  },
  {
    "churchId": 17,
    "name": "인도첸나이인도뭄바이지역",
    "gubun": "지역",
    "jipa": "맛디아",
    "continent": "아시아",
    "country": "인도",
    "leaderName": "인도뭄바이 담임사역자",
    "flightTime": "직항 약 8시간 50분",
    "distanceKm": 5600,
    "timeDiff": "한국보다 3시간 30분 느림",
    "language": "힌디어 · 타밀어 · 영어",
    "religion": "힌두교 (79%) · 이슬람교 · 기독교",
    "lat": 19.076,
    "lon": 72.8777
  },
  {
    "churchId": 18,
    "name": "인도첸나이인도오디샤지역",
    "gubun": "지역",
    "jipa": "맛디아",
    "continent": "아시아",
    "country": "인도",
    "leaderName": "인도오디샤 담임사역자",
    "flightTime": "직항 약 8시간 50분",
    "distanceKm": 5600,
    "timeDiff": "한국보다 3시간 30분 느림",
    "language": "힌디어 · 타밀어 · 영어",
    "religion": "힌두교 (79%) · 이슬람교 · 기독교",
    "lat": 20.2961,
    "lon": 85.8245
  },
  {
    "churchId": 19,
    "name": "인도첸나이인도카르나타카서부지역",
    "gubun": "지역",
    "jipa": "맛디아",
    "continent": "아시아",
    "country": "인도",
    "leaderName": "인도카르나타카서부 담임사역자",
    "flightTime": "직항 약 8시간 50분",
    "distanceKm": 5600,
    "timeDiff": "한국보다 3시간 30분 느림",
    "language": "힌디어 · 타밀어 · 영어",
    "religion": "힌두교 (79%) · 이슬람교 · 기독교",
    "lat": 12.9141,
    "lon": 74.856
  },
  {
    "churchId": 20,
    "name": "텍사스교회부에아지역",
    "gubun": "지역",
    "jipa": "맛디아",
    "continent": "아프리카",
    "country": "카메룬",
    "leaderName": "텍사스부에아 담임사역자",
    "flightTime": "경유 약 18시간",
    "distanceKm": 11500,
    "timeDiff": "한국보다 8시간 느림",
    "language": "프랑스어 · 영어",
    "religion": "가톨릭 (38%) · 개신교 (26%) · 이슬람교",
    "lat": 4.1567895,
    "lon": 9.2315915
  },
  {
    "churchId": 21,
    "name": "인도첸나이교회인도네시아쿠팡지역",
    "gubun": "지역",
    "jipa": "맛디아",
    "continent": "아시아",
    "country": "인도네시아",
    "leaderName": "인도네시아쿠팡 담임사역자",
    "flightTime": "직항 약 7시간",
    "distanceKm": 5200,
    "timeDiff": "한국보다 2시간 느림",
    "language": "인도네시아어",
    "religion": "이슬람교 (87%) · 개신교 (7%)",
    "lat": -10.1632209,
    "lon": 123.6017755
  }
]